City_ID,City,Cloudiness,Country,Date,Humidity,Lat,Lng,Max Temp,Wind Speed
0,souillac,90,FR,1542072600,100,45.6,-0.6,51.8,6.93
1,gelgaudiskis,80,LT,1542074754,89,55.08,22.98,46.84,15.35
2,ushuaia,20,AR,1542070800,73,-54.81,-68.31,44.6,25.28
3,faanui,92,PF,1542074755,100,-16.48,-151.75,74.65,10.09
4,vaini,0,IN,1542074756,38,15.34,74.49,73.3,4.72
5,khatanga,44,RU,1542074757,69,71.98,102.47,-15.35,9.64
6,rikitea,8,PF,1542074757,100,-23.12,-134.97,73.57,10.42
7,puerto ayora,56,EC,1542074757,100,-0.74,-90.35,71.64,15.01
8,deputatskiy,68,RU,1542074540,71,69.3,139.9,-3.02,2.59
9,esperance,20,TT,1542070800,94,10.24,-61.45,78.8,6.17
10,coruripe,36,BR,1542074758,94,-10.12,-36.18,79.78,11.32
11,arraial do cabo,80,BR,1542074758,95,-22.97,-42.02,74.07,16.13
12,dunedin,76,NZ,1542074759,82,-45.87,170.5,57.01,4.16
13,kodiak,90,US,1542070380,62,39.95,-94.76,24.98,18.34
14,dikson,80,RU,1542074759,100,73.51,80.55,0.04,42.41
15,port macquarie,75,AU,1542070800,50,-31.43,152.91,77.0,12.75
16,chokurdakh,44,RU,1542074760,55,70.62,147.9,-10.54,13.44
17,tasiilaq,92,GL,1542070200,63,65.61,-37.64,30.2,16.11
18,saint-philippe,75,CA,1542074100,77,45.36,-73.48,33.8,3.71
19,kahului,20,US,1542070560,54,20.89,-156.47,84.02,16.11
20,bethel,90,US,1542071580,100,60.79,-161.76,24.08,18.34
21,thompson,40,CA,1542070800,71,55.74,-97.86,6.8,4.7
22,port hedland,0,AU,1542072600,55,-20.31,118.58,86.0,10.29
23,mar del plata,0,AR,1542074764,37,-46.43,-67.52,64.35,15.46
24,pavlogradka,68,RU,1542074575,88,54.2,73.56,17.86,9.31
25,clyde river,1,CA,1542070800,83,70.47,-68.59,-11.21,2.24
26,lebowakgomo,0,ZA,1542070800,63,-24.3,29.54,60.8,1.12
27,hermanus,32,ZA,1542074765,91,-34.42,19.24,53.19,4.05
28,fort nelson,75,CA,1542070800,85,58.81,-122.69,24.8,2.37
29,flinders,0,AU,1542070800,36,-34.58,150.85,80.6,6.93
30,calvinia,8,ZA,1542074767,41,-31.47,19.78,48.69,2.59
31,iqaluit,40,CA,1542070800,77,63.75,-68.52,5.0,3.36
32,pacific grove,1,US,1542072900,33,36.62,-121.92,64.94,1.36
33,hithadhoo,76,MV,1542074768,100,-0.6,73.08,82.62,16.02
34,arua,8,UG,1542074768,94,3.02,30.91,61.42,2.71
35,te anau,0,NZ,1542074769,62,-45.41,167.72,61.69,3.38
36,punta arenas,75,CL,1542070800,66,-53.16,-70.91,48.2,11.41
37,lebyazhye,90,RU,1542072600,100,59.96,29.42,33.8,8.95
38,mala bilozerka,0,UA,1542074770,100,47.24,34.94,27.09,13.67
39,mataura,0,NZ,1542074773,62,-46.19,168.86,63.85,9.08
40,guerrero negro,0,MX,1542074627,47,27.97,-114.04,66.19,18.7
41,lithakia,0,GR,1542072000,87,37.72,20.83,42.8,6.96
42,port elizabeth,90,US,1542073620,78,39.31,-74.98,46.94,6.93
43,bakel,88,SN,1542074775,32,14.9,-12.46,77.22,8.75
44,bredasdorp,12,ZA,1542070800,82,-34.53,20.04,60.8,4.7
45,sao filipe,56,CV,1542074776,100,14.9,-24.5,74.56,17.25
46,bandarbeyla,8,SO,1542074777,100,9.49,50.81,79.2,10.98
47,bluff,0,AU,1542074777,29,-23.58,149.07,88.24,10.65
48,ewa beach,75,US,1542071040,53,21.32,-158.01,82.94,11.41
49,chicama,90,PE,1542070800,88,-7.84,-79.15,66.2,13.87
50,airai,8,TL,1542074778,59,-8.93,125.41,85.05,1.25
51,pereslavl-zalesskiy,0,RU,1542074730,81,56.74,38.86,14.04,13.22
52,aksarka,92,RU,1542074779,94,66.56,67.8,30.42,20.15
53,tulsa,90,US,1542072900,74,36.16,-95.99,28.94,10.29
54,gamba,12,CN,1542074779,68,28.28,88.52,10.84,2.93
55,luderitz,24,NA,1542074780,86,-26.65,15.16,56.47,8.75
56,baruun-urt,0,MN,1542074780,59,46.68,113.28,35.19,8.52
57,snejbjerg,80,DK,1542072000,100,56.14,8.9,48.2,6.93
58,waipawa,44,NZ,1542074785,77,-39.94,176.59,64.66,5.39
59,neiafu,75,TO,1542070800,88,-18.65,-173.98,77.0,8.05
60,vilyuysk,76,RU,1542074785,70,63.75,121.63,-1.49,5.84
61,linxia,0,CN,1542074786,54,35.6,103.21,40.72,2.59
62,yichun,32,CN,1542074545,71,47.72,128.88,33.39,3.49
63,cherskiy,0,RU,1542074787,68,68.75,161.3,-14.77,1.92
64,carnarvon,0,ZA,1542074787,24,-30.97,22.13,60.25,7.74
65,hobart,75,AU,1542072600,22,-42.88,147.33,78.8,16.11
66,tomohon,20,ID,1542072600,62,1.33,124.84,87.8,2.24
67,cape town,75,ZA,1542070800,72,-33.93,18.42,62.6,13.87
68,pangody,88,RU,1542074789,87,65.85,74.49,10.48,15.79
69,pangnirtung,0,CA,1542074790,100,66.15,-65.72,0.58,5.73
70,haines junction,24,CA,1542074790,95,60.75,-137.51,23.89,2.15
71,albany,90,US,1542074040,43,42.65,-73.75,44.96,10.29
72,castro,0,CL,1542074791,96,-42.48,-73.76,44.5,2.59
73,tupsan,48,PH,1542074792,96,9.2,124.78,80.82,3.94
74,okhotsk,88,RU,1542074792,98,59.36,143.24,28.03,13.44
75,nome,90,US,1542073980,79,30.04,-94.42,50.0,17.22
76,karratha,0,AU,1542074782,35,-20.74,116.85,91.57,8.08
77,shingu,75,JP,1542070800,77,33.72,135.99,59.0,3.36
78,atuona,0,PF,1542074793,100,-9.8,-139.03,81.13,16.69
79,lompoc,1,US,1542072900,18,34.64,-120.46,64.94,4.7
80,lagoa,0,PT,1542072600,87,37.14,-8.45,51.8,3.36
81,yellowknife,75,CA,1542070800,78,62.45,-114.38,10.4,13.87
82,east london,0,ZA,1542074535,91,-33.02,27.91,70.6,26.87
83,mount gambier,80,AU,1542074768,75,-37.83,140.78,69.88,6.62
84,zhaozhou,0,CN,1542074796,81,45.71,125.27,36.27,4.38
85,eureka,1,US,1542073200,96,40.8,-124.16,48.2,2.37
86,busselton,48,AU,1542074796,95,-33.64,115.35,65.65,9.64
87,nikolskoye,90,RU,1542072600,94,59.7,30.79,33.8,8.95
88,sitka,0,US,1542074798,74,37.17,-99.65,19.03,10.98
89,nuuk,0,GL,1542070200,79,64.17,-51.74,23.0,6.93
90,avarua,75,CK,1542070800,69,-21.21,-159.78,82.4,8.05
91,yakeshi,0,CN,1542074799,54,49.28,120.73,32.4,6.4
92,kaeo,44,NZ,1542074800,40,-35.1,173.78,73.44,8.41
93,saint george,0,GR,1542070200,81,39.45,22.34,48.2,3.27
94,butaritari,8,KI,1542074801,100,3.07,172.79,85.63,10.98
95,harper,90,US,1542074100,80,30.3,-99.24,37.4,18.34
96,longyearbyen,20,NO,1542070200,62,78.22,15.63,21.2,6.93
97,panji,0,CN,1542074802,72,32.78,116.82,62.05,6.51
98,road town,1,VG,1542070380,79,18.42,-64.62,82.04,8.05
99,victoria,75,BN,1542072600,79,5.28,115.24,86.0,2.24
100,kapaa,1,US,1542070560,54,22.08,-159.32,84.02,12.75
101,codrington,76,AU,1542074804,88,-28.95,153.24,66.91,5.73
102,blythe,1,US,1542070320,9,33.61,-114.59,64.94,14.99
103,hilo,20,US,1542070560,56,19.71,-155.08,80.96,8.05
104,guanica,75,PR,1542070200,100,17.97,-66.91,78.8,13.87
105,phibun mangsahan,12,TH,1542070800,78,15.24,105.23,78.8,5.82
106,zabol,0,IR,1542074806,89,31.03,61.49,55.12,20.27
107,imbituba,40,BR,1542070800,83,-28.24,-48.67,75.2,6.93
108,zuenoula,0,CI,1542074807,95,7.43,-6.04,72.72,5.73
109,faya,0,SA,1542070800,76,18.39,42.45,57.2,2.26
110,kapit,36,MY,1542074808,85,2.02,112.94,81.45,2.71
111,laibin,80,CN,1542074808,100,23.74,109.23,62.95,5.61
112,pevek,0,RU,1542074809,100,69.7,170.27,-4.55,4.05
113,tornio,90,FI,1542072000,100,61.12,27.27,39.2,9.17
114,marawi,92,PH,1542074810,99,8.0,124.29,75.15,2.26
115,maragogi,92,BR,1542074810,94,-9.01,-35.22,75.87,5.17
116,tuktoyaktuk,40,CA,1542070800,84,69.44,-133.03,-2.21,12.75
117,brae,92,GB,1542072000,87,60.4,-1.35,50.0,12.75
118,tabou,44,CI,1542074811,100,4.42,-7.36,81.72,2.82
119,ahuimanu,20,US,1542071040,66,21.44,-157.84,82.94,8.05
120,port alfred,0,ZA,1542074812,85,-33.59,26.89,68.85,5.95
121,kendari,8,ID,1542074813,44,-3.99,122.52,92.65,4.05
122,meulaboh,92,ID,1542074813,100,4.14,96.13,74.56,7.96
123,chuy,76,UY,1542074814,89,-33.69,-53.46,70.51,23.06
124,skibbereen,20,IE,1542072600,93,51.55,-9.27,41.0,6.93
125,college,90,US,1542070680,84,64.86,-147.8,26.96,4.94
126,rio gallegos,75,AR,1542070800,43,-51.62,-69.22,55.4,9.17
127,tuy hoa,100,VN,1542074815,100,13.08,109.3,76.32,5.28
128,port hardy,90,CA,1542070800,61,50.7,-127.42,48.2,14.99
129,mawlaik,48,MM,1542074604,77,23.63,94.42,74.47,2.15
130,severo-kurilsk,80,RU,1542074818,94,50.68,156.12,41.98,13.0
131,la libertad,0,PE,1542070800,54,-16.38,-71.56,55.4,2.24
132,paamiut,48,GL,1542074818,87,61.99,-49.67,37.89,5.61
133,bambous virieux,40,MU,1542074400,88,-20.34,57.76,75.2,8.05
134,ponta do sol,64,BR,1542074820,90,-20.63,-46.0,65.92,6.73
135,gorontalo,64,ID,1542074820,78,0.54,123.06,83.11,2.15
136,cabo san lucas,5,MX,1542070320,73,22.89,-109.91,75.2,4.7
137,flin flon,0,CA,1542074821,100,54.77,-101.88,5.4,3.15
138,bondo,8,CD,1542074822,80,3.81,23.69,73.35,2.15
139,payakumbuh,12,ID,1542074822,76,-0.23,100.63,83.74,2.59
140,ziway,0,ET,1542074823,100,7.93,38.72,38.7,3.04
141,sinnamary,80,GF,1542074823,97,5.38,-52.96,80.37,9.64
142,kayerkan,0,RU,1542074823,53,69.35,87.76,-31.28,5.39
143,noumea,48,NC,1542072600,58,-22.28,166.46,82.4,16.11
144,kamaishi,20,JP,1542070800,71,39.28,141.86,51.8,3.36
145,suez,0,EG,1542074825,87,29.97,32.54,50.62,2.71
146,nuevo progreso,75,US,1542073980,80,26.05,-97.95,57.2,18.34
147,new norfolk,75,AU,1542072600,22,-42.78,147.06,78.8,16.11
148,kavaratti,24,IN,1542074826,93,10.57,72.64,87.34,7.85
149,siverskiy,90,RU,1542072600,93,59.35,30.08,33.8,8.95
150,orlik,0,RU,1542074827,48,52.51,99.83,-12.92,2.15
151,raton,1,US,1542070440,67,36.9,-104.44,17.06,2.82
152,hirara,40,JP,1542070800,83,24.8,125.28,77.0,11.41
153,sam chuk,0,TH,1542074829,85,14.75,100.09,84.24,7.74
154,ancud,0,CL,1542074829,87,-41.87,-73.83,46.39,2.37
155,magadan,90,RU,1542072600,69,59.56,150.8,35.6,8.95
156,torbay,90,CA,1542070800,64,47.66,-52.73,33.8,33.33
157,dingle,24,PH,1542074830,64,11.0,122.67,86.53,13.78
158,puri,40,ID,1542072600,74,-7.54,112.45,84.2,9.17
159,namibe,32,AO,1542074831,100,-15.19,12.15,73.84,6.29
160,zaterechnyy,92,RU,1542074831,95,44.8,45.21,45.58,20.6
161,lebu,0,ET,1542074831,80,8.96,38.73,35.37,2.71
162,saint-augustin,90,FR,1542072600,93,44.83,-0.61,51.8,2.24
163,honningsvag,92,NO,1542074832,100,70.98,25.97,36.49,4.61
164,gari,92,RU,1542074833,75,59.43,62.35,25.33,6.73
165,aklavik,90,CA,1542070800,84,68.22,-135.01,5.0,12.75
166,sao joao da barra,88,BR,1542074833,99,-21.64,-41.05,76.32,15.23
167,provideniya,40,RU,1542072600,62,64.42,-173.23,24.8,22.37
168,dwarka,40,IN,1542072600,77,28.58,77.04,66.2,4.7
169,leningradskiy,0,RU,1542074835,100,69.38,178.42,10.12,11.21
170,kaitangata,0,NZ,1542074835,72,-46.28,169.85,63.04,7.18
171,contamana,24,PE,1542074908,85,-7.35,-75.01,79.74,2.37
172,jamestown,100,AU,1542074726,43,-33.21,138.6,75.28,8.19
173,surab,0,PK,1542074849,85,28.49,66.26,45.22,2.71
174,hasaki,75,JP,1542072600,72,35.73,140.83,60.8,16.11
175,amparafaravola,68,MG,1542074850,86,-17.68,48.22,65.38,9.19
176,havre-saint-pierre,20,CA,1542070800,79,50.23,-63.6,23.0,10.29
177,mabaruma,92,GY,1542074851,93,8.2,-59.78,79.74,4.61
178,saskylakh,44,RU,1542074851,37,71.97,114.09,-24.62,5.61
179,nelson bay,75,AU,1542072600,44,-32.72,152.14,78.8,13.87
180,royan,90,FR,1542072600,100,45.62,-1.03,53.6,6.93
181,manado,20,ID,1542072600,62,1.49,124.85,87.8,2.24
182,ivdel,12,RU,1542074853,70,60.7,60.42,21.87,9.64
183,katsuura,75,JP,1542071220,100,33.93,134.5,53.6,3.36
184,korcula,0,HR,1542070800,93,42.96,17.14,44.6,2.24
185,zheleznodorozhnyy,0,RU,1542072600,78,55.75,38.0,19.4,6.71
186,praya,40,ID,1542072600,70,-8.71,116.27,86.0,11.41
187,changde,80,CN,1542074854,100,29.04,111.68,54.27,4.61
188,yar-sale,92,RU,1542074855,94,66.83,70.83,30.37,22.28
189,obihiro,20,JP,1542070800,70,42.92,143.2,44.6,2.24
190,puerto ayacucho,8,CO,1542074855,94,5.66,-67.63,76.09,2.59
191,myitkyina,0,MM,1542074856,73,25.38,97.4,72.22,2.71
192,minab,0,IR,1542070800,94,27.15,57.07,69.8,4.7
193,linares,48,CL,1542074857,96,-35.85,-71.6,46.48,2.37
194,beringovskiy,48,RU,1542074857,100,63.05,179.32,20.38,21.94
195,husavik,64,CA,1542074857,94,50.56,-96.99,14.62,8.3
196,tiksi,68,RU,1542074858,82,71.64,128.87,-5.14,3.27
197,sulangan,36,PH,1542074858,100,11.14,123.72,83.07,14.23
198,alofi,75,NU,1542070800,69,-19.06,-169.92,80.6,12.75
199,mahebourg,40,MU,1542074400,88,-20.41,57.7,75.2,8.05
200,barrow,92,AR,1542074682,96,-38.31,-60.23,67.95,7.29
201,tymovskoye,92,RU,1542074812,85,50.85,142.66,32.71,6.17
202,bara,24,NG,1542074860,44,10.41,10.6,66.91,5.73
203,umm lajj,0,SA,1542074860,100,25.02,37.27,64.66,4.16
204,vuktyl,88,RU,1542074861,80,63.86,57.31,22.27,7.63
205,bati,0,ET,1542074861,73,11.19,40.02,53.68,1.92
206,punta alta,0,AR,1542070800,55,-27.46,-55.82,86.0,8.05
207,alta floresta,12,BR,1542074862,93,-9.87,-56.08,75.19,1.92
208,parkent,90,UZ,1542072600,100,41.29,69.68,24.8,6.93
209,vostok,80,RU,1542074863,76,46.45,135.83,28.62,2.93
210,turan,24,RU,1542074863,67,52.15,93.92,-11.84,2.26
211,norman wells,90,CA,1542070800,85,65.28,-126.83,15.8,11.41
212,lazurne,0,UA,1542074864,83,46.77,34.99,22.05,10.98
213,makakilo city,75,US,1542071040,53,21.35,-158.09,82.94,11.41
214,rio claro,0,BR,1542070800,88,-22.41,-47.56,71.6,4.7
215,hobyo,76,SO,1542074865,80,5.35,48.53,80.5,10.2
216,beyla,56,GN,1542074865,99,8.69,-8.65,65.83,3.71
217,port augusta,40,AU,1542070800,73,-32.49,137.76,71.6,8.05
218,acajutla,0,SV,1542070200,69,13.59,-89.83,77.0,3.36
219,kabare,8,RW,1542074866,100,-1.65,29.38,54.27,0.69
220,saryg-sep,0,RU,1542074866,61,51.49,95.55,-4.87,4.5
221,homer,90,US,1542070380,83,59.64,-151.54,48.92,14.99
222,coihaique,0,CL,1542070800,62,-45.58,-72.07,55.4,4.7
223,pochutla,40,MX,1542069900,74,15.74,-96.47,84.2,11.41
224,botou,0,CN,1542074868,62,38.08,116.55,58.72,7.29
225,lorengau,12,PG,1542074868,100,-2.02,147.27,81.4,10.2
226,plastun,0,RU,1542074868,58,44.76,136.29,36.45,4.38
227,sumter,90,US,1542074100,100,33.92,-80.34,50.0,6.93
228,biasca,75,CH,1542073800,100,46.36,8.97,53.6,0.58
229,erenhot,0,CN,1542074870,64,43.65,111.97,37.21,6.4
230,gladstone,0,AU,1542074870,53,-23.84,151.26,84.15,14.79
231,tura,32,IN,1542074870,80,25.52,90.21,70.92,3.6
232,mujiayingzi,0,CN,1542074871,65,42.12,118.78,40.5,3.71
233,poddorye,88,RU,1542074871,73,57.47,31.12,32.94,20.83
234,kysyl-syr,76,RU,1542074871,72,63.9,122.77,-2.17,5.39
235,qaanaaq,64,GL,1542074872,100,77.48,-69.36,7.69,2.82
236,nikolayevka,92,RU,1542074872,100,46.73,38.57,34.74,24.29
237,wenatchee,1,US,1542074100,88,47.42,-120.31,30.92,1.81
238,altay,0,CN,1542074873,49,47.83,88.13,-12.79,1.59
239,menongue,0,AO,1542074873,30,-14.66,17.68,66.01,6.06
240,dalaba,20,GN,1542074873,82,10.69,-12.25,61.06,2.71
241,salamanca,80,ES,1542072600,93,40.97,-5.66,46.4,6.93
242,constitucion,40,MX,1542069720,51,23.99,-104.67,60.8,2.24
243,biloela,0,AU,1542074612,35,-24.4,150.51,85.05,8.08
244,japura,44,ID,1542074875,85,-0.42,102.29,83.11,2.93
245,laguna,5,MX,1542069720,25,27.52,-110.01,73.4,10.29
246,diamantino,8,BR,1542074875,85,-14.4,-56.44,77.94,2.37
247,georgetown,88,GY,1542074628,88,6.8,-58.16,79.15,7.07
248,dong hoi,100,VN,1542074876,100,17.48,106.6,75.73,7.4
249,hasanabad,90,IR,1542072600,81,35.37,51.24,50.0,4.7
250,ribeira grande,80,PT,1542074877,95,38.52,-28.7,68.26,25.08
251,popondetta,32,PG,1542074877,60,-8.77,148.24,83.11,2.26
252,salalah,20,OM,1542073800,56,17.01,54.1,71.6,4.7
253,nurobod,90,UZ,1542072600,100,40.91,69.8,24.8,6.93
254,maltahohe,0,NA,1542074878,25,-24.83,16.98,57.46,4.27
255,sarai alamgir,68,PK,1542074879,82,32.9,73.75,57.15,7.07
256,tuatapere,0,NZ,1542074879,79,-46.13,167.69,58.59,8.97
257,nanpiao,0,CN,1542074880,55,41.1,120.75,45.22,4.16
258,muscat,0,OM,1542070200,54,23.6,58.55,80.6,5.82
259,ilulissat,44,GL,1542070200,72,69.22,-51.1,15.8,9.17
260,finschhafen,68,PG,1542074881,92,-6.6,147.85,77.26,3.15
261,pecos,90,US,1542073980,52,31.42,-103.49,35.78,13.87
262,namatanai,8,PG,1542074882,95,-3.66,152.44,86.44,9.08
263,talnakh,0,RU,1542074882,52,69.49,88.39,-31.24,5.17
264,bathsheba,40,BB,1542070800,83,13.22,-59.52,80.6,14.99
265,miandrivazo,0,MG,1542074883,84,-19.53,45.46,66.82,2.71
266,mugumu,32,TZ,1542074883,94,-1.84,34.67,58.14,5.06
267,komsomolskiy,92,RU,1542074883,95,67.55,63.78,31.09,25.97
268,sarangani,88,PH,1542074884,100,5.4,125.46,80.19,7.85
269,rosarito,75,CO,1542070800,100,4.91,-75.23,73.4,0.92
270,izhma,88,RU,1542074885,77,65.01,53.91,26.5,8.19
271,beloha,0,MG,1542074885,76,-25.17,45.06,67.05,16.13
272,hamilton,40,BM,1542070500,68,32.3,-64.78,69.8,14.99
273,fez,75,MA,1542072600,87,34.03,-5.02,53.6,1.14
274,altamira,0,BR,1542074720,81,-3.2,-52.21,80.14,4.27
275,henties bay,100,NA,1542074887,89,-22.12,14.28,63.4,5.39
276,soyo,88,AO,1542074887,94,-6.13,12.37,77.89,3.83
277,morros,0,BR,1542070800,83,-2.87,-44.04,80.6,8.05
278,praia da vitoria,20,PT,1542070800,88,38.73,-27.07,64.4,21.83
279,sabha,0,LY,1542074888,83,27.03,14.43,46.75,2.93
280,baker city,1,US,1542073980,51,44.77,-117.83,30.92,4.7
281,lakes entrance,100,AU,1542074839,52,-37.88,147.99,77.53,10.2
282,acapulco,75,MX,1542069960,83,16.86,-99.88,80.6,5.82
283,yumen,8,CN,1542074891,71,40.29,97.04,33.61,8.97
284,tarko-sale,56,RU,1542074780,75,64.92,77.78,-2.93,7.96
285,soe,90,EE,1542070200,93,57.91,26.05,39.2,9.17
286,kurumkan,32,RU,1542074892,81,54.33,110.32,6.97,2.59
287,suihua,0,CN,1542074892,98,46.64,126.99,33.39,4.61
288,butembo,12,CD,1542074893,92,0.12,29.29,58.36,2.26
289,zlitan,0,LY,1542074893,100,32.47,14.57,55.39,4.61
290,luganville,80,VU,1542074893,100,-15.51,167.18,78.34,7.4
291,ankang,92,CN,1542074894,83,32.73,108.99,47.92,2.59
292,shahr-e babak,0,IR,1542074894,71,30.12,55.12,34.15,3.94
293,cidreira,68,BR,1542074895,83,-30.17,-50.22,73.3,19.04
294,egvekinot,0,RU,1542074895,58,66.32,-179.17,-12.52,2.15
295,bubaque,8,GW,1542074895,100,11.28,-15.83,83.34,13.11
296,jacobabad,0,PK,1542074896,84,28.29,68.44,66.64,6.73
297,fortuna,0,ES,1542072600,87,38.18,-1.13,59.0,6.93
298,khorramshahr,0,IR,1542074400,82,30.43,48.18,62.6,4.7
299,sorong,64,ID,1542074897,100,-0.86,131.25,83.56,5.95
300,saint-francois,92,FR,1542072600,100,46.42,3.91,51.8,2.24
301,caravelas,88,BR,1542074863,100,-17.73,-39.27,74.7,12.66
302,pingdu,0,CN,1542074400,50,36.79,119.95,57.2,4.47
303,nouadhibou,0,MR,1542070800,82,20.93,-17.03,66.2,19.46
304,necochea,68,AR,1542074776,93,-38.55,-58.74,66.46,15.23
305,ahipara,76,NZ,1542074899,65,-35.17,173.16,66.91,13.89
306,taylorville,90,US,1542072900,90,39.55,-89.29,30.02,18.34
307,atambua,8,ID,1542074900,77,-9.11,124.89,88.29,2.93
308,naftalan,75,AZ,1542074400,87,40.5,46.82,46.4,0.69
309,nova bystrice,80,CZ,1542074900,96,49.02,15.1,40.59,3.6
310,kamenka,0,RU,1542074901,76,53.19,44.05,5.71,2.93
311,narsaq,76,GL,1542070200,32,60.91,-46.05,41.0,34.45
312,makhinjauri,75,GE,1542074400,93,41.67,41.69,51.8,9.17
313,dali,0,CN,1542074902,78,25.6,100.24,56.38,1.92
314,pingliang,44,CN,1542074903,99,35.54,106.68,37.84,3.71
315,marsa matruh,20,EG,1542070800,68,31.35,27.25,68.0,5.82
316,half moon bay,5,US,1542070620,62,37.46,-122.43,64.4,2.82
317,cayenne,0,GF,1542072600,88,4.94,-52.33,78.8,2.24
318,thinadhoo,76,MV,1542074905,100,0.53,72.93,82.75,17.02
319,sao gabriel da cachoeira,12,BR,1542074905,95,-0.13,-67.09,77.71,1.92
320,yoichi,92,JP,1542074905,100,43.19,140.77,43.92,8.19
321,genhe,0,CN,1542074906,61,50.78,121.52,24.97,4.16
322,geraldton,90,CA,1542070800,65,49.72,-86.95,8.6,3.36
323,two rivers,90,US,1542074160,68,44.15,-87.57,26.06,11.41
324,ixtapa,20,MX,1542070140,83,20.71,-105.21,82.4,4.7
325,abu dhabi,0,AE,1542074400,78,24.47,54.37,78.8,3.36
326,zephyrhills,75,US,1542072900,78,28.23,-82.18,82.04,6.4
327,lethem,8,GY,1542074907,48,3.38,-59.8,89.55,15.01
328,zapote,75,EC,1542070800,78,-0.94,-80.07,75.2,12.75
329,khor,56,RU,1542074908,98,47.88,134.96,33.43,9.19
330,kruisfontein,36,ZA,1542074908,90,-34.0,24.73,62.59,16.8
331,yulara,0,AU,1542070800,33,-25.24,130.99,86.0,8.05
332,mansa,0,IN,1542072600,77,23.43,72.66,64.4,1.81
333,ostrovnoy,32,RU,1542074910,91,68.05,39.51,30.6,18.81
334,nemuro,20,JP,1542070800,66,43.32,145.57,48.2,8.05
335,concordia,92,AR,1542074910,96,-31.4,-58.02,71.59,18.14
336,high level,90,CA,1542070800,85,58.52,-117.13,21.2,5.06
337,qaqortoq,88,GL,1542070200,32,60.72,-46.03,41.0,34.45
338,dayong,0,PH,1542074912,98,11.74,122.04,82.84,14.34
339,srandakan,64,ID,1542074912,95,-7.94,110.25,79.2,3.94
340,nanortalik,56,GL,1542074912,87,60.14,-45.24,36.31,36.37
341,muros,90,ES,1542072600,100,42.77,-9.06,39.2,1.12
342,coahuayana,0,MX,1542074913,78,18.62,-100.35,61.6,2.26
343,hearst,36,CA,1542074913,73,49.69,-83.67,12.42,6.4
344,katobu,0,ID,1542074914,65,-4.94,122.53,91.93,2.71
345,barguzin,76,RU,1542074914,74,53.62,109.63,11.52,2.71
346,sun valley,5,US,1542070260,50,43.7,-114.35,28.4,1.7
347,kalmunai,24,LK,1542074915,83,7.42,81.82,80.1,3.38
348,vila velha,75,BR,1542070800,83,-3.71,-38.6,80.6,11.41
349,mao,20,DO,1542070800,100,19.55,-71.08,77.0,4.7
350,azare,0,NG,1542074916,39,11.67,10.19,64.17,6.73
351,arman,90,RU,1542072600,69,59.7,150.17,35.6,8.95
352,upernavik,32,GL,1542074917,100,72.79,-56.15,17.55,13.44
353,sonoita,1,US,1542072660,20,31.68,-110.66,57.92,4.7
354,tieli,0,CN,1542074918,91,46.98,128.05,32.44,3.94
355,vestmannaeyjar,36,IS,1542074918,100,63.44,-20.27,37.3,3.6
356,pahrump,1,US,1542070680,13,36.21,-115.98,55.94,11.41
357,ust-tsilma,92,RU,1542074919,80,65.44,52.15,28.62,9.42
358,nago,40,IT,1542072000,100,45.88,10.89,55.4,2.24
359,lashma,0,RU,1542074920,80,54.93,41.14,9.04,8.86
360,amberley,0,NZ,1542072600,55,-43.15,172.73,64.4,9.17
361,port blair,24,IN,1542074852,100,11.67,92.75,80.86,8.41
362,venado tuerto,80,AR,1542074921,98,-33.75,-61.97,66.01,20.49
363,morozovsk,92,RU,1542074921,87,48.35,41.83,24.97,16.46
364,bahia de caraquez,75,EC,1542070800,78,-0.6,-80.42,75.2,12.75
365,saint-pierre,75,FR,1542072600,100,48.95,4.24,51.8,8.05
366,san patricio,12,PY,1542074922,64,-26.98,-56.83,82.3,5.17
367,russell,75,AR,1542070800,87,-33.01,-68.8,53.6,5.82
368,lata,92,IN,1542074923,66,30.78,78.62,44.55,2.04
369,bad kreuznach,75,DE,1542072000,100,49.84,7.87,55.4,4.7
370,canutama,20,BR,1542074833,88,-6.53,-64.38,80.41,2.26
371,ponta delgada,75,PT,1542072600,82,37.73,-25.67,66.2,13.87
372,kampong thum,12,KH,1542074925,81,12.71,104.89,84.82,2.15
373,kemin,68,KG,1542074925,80,42.79,75.7,5.26,1.36
374,coolum beach,88,AU,1542074926,82,-26.53,153.09,72.49,8.97
375,ushtobe,8,KZ,1542074926,60,45.25,77.98,-3.11,2.93
376,zhuanghe,0,CN,1542074926,100,39.7,122.97,52.02,5.95
377,huambo,0,AO,1542074927,79,-12.78,15.73,54.45,2.26
378,bar harbor,1,US,1542070560,81,44.39,-68.2,28.94,4.94
379,bagamoyo,40,MZ,1542074400,82,-25.89,32.56,66.2,2.24
380,khuzhir,12,RU,1542074928,100,53.19,107.35,7.51,6.62
381,ourossogui,88,SN,1542074928,32,15.61,-13.32,81.09,10.76
382,zelenoborsk,68,RU,1542074928,83,61.47,64.05,23.89,7.74
383,vila do maio,40,CV,1542070800,73,15.13,-23.22,73.4,17.22
384,tamworth,36,AU,1542072600,18,-31.09,150.93,82.4,3.36
385,berlevag,92,NO,1542074930,100,70.86,29.09,37.35,10.98
386,green river,1,US,1542074040,58,41.53,-109.47,17.96,10.29
387,vila franca do campo,75,PT,1542072600,82,37.72,-25.43,66.2,13.87
388,livingston,90,US,1542072720,93,32.58,-88.19,53.96,8.05
389,porbandar,0,IN,1542074932,92,21.64,69.61,75.87,4.16
390,lagos,56,NG,1542074777,93,6.46,3.39,80.14,6.62
391,atasu,76,KZ,1542074933,82,48.68,71.64,3.01,9.75
392,jiaozuo,8,CN,1542074933,58,35.21,113.25,56.25,3.38
393,saldanha,0,PT,1542074934,92,41.42,-6.55,37.57,4.61
394,goya,100,AR,1542074934,97,-29.14,-59.27,73.03,4.94
395,pontiac,90,US,1542073020,78,42.64,-83.29,39.02,6.93
396,lumby,90,CA,1542070800,86,50.25,-118.97,33.8,2.24
397,den helder,75,NL,1542073440,93,52.96,4.76,53.6,13.87
398,bon air,90,US,1542074160,95,37.52,-77.56,48.2,3.36
399,cuencame,0,MX,1542074936,81,24.87,-103.7,43.92,4.94
400,maiduguri,0,NG,1542074936,46,11.84,13.15,64.89,5.73
401,the valley,20,AI,1542070800,88,18.22,-63.06,78.8,11.41
402,turukhansk,12,RU,1542074937,27,65.8,87.96,-18.95,3.27
403,los llanos de aridane,56,ES,1542072600,68,28.66,-17.92,66.2,14.99
404,kandrian,36,PG,1542074937,68,-6.21,149.55,85.54,7.18
405,fairbanks,90,US,1542070680,84,64.84,-147.72,26.96,4.94
406,quesnel,1,CA,1542070800,74,52.98,-122.49,35.6,5.82
407,kloulklubed,75,PW,1542070200,74,7.04,134.26,86.0,8.05
408,marsh harbour,32,BS,1542074898,100,26.54,-77.06,80.41,18.03
409,phangnga,20,TH,1542072600,78,8.45,98.53,80.6,2.24
410,galle,90,US,1542074160,75,29.74,-97.91,42.98,23.29
411,la grande,1,US,1542073980,51,45.32,-118.09,35.96,4.7
412,bandeirantes,92,BR,1542074940,63,-23.11,-50.37,79.02,14.79
413,pindushi,88,RU,1542074941,87,62.92,34.58,33.12,14.67
414,babstovo,0,RU,1542074941,84,48.12,132.48,35.41,7.07
415,tafresh,92,IR,1542074941,100,34.69,50.01,40.18,2.71
416,mount isa,48,AU,1542072600,30,-20.73,139.49,95.0,14.99
417,christiana,0,ZA,1542074942,51,-27.91,25.16,61.47,5.17
418,westport,92,IE,1542074667,93,53.8,-9.52,48.46,13.89
419,fukue,75,JP,1542074400,55,35.03,136.69,64.4,12.75
420,alekseyevsk,0,RU,1542074943,69,57.84,108.35,-1.99,3.94
421,xai-xai,0,MZ,1542074944,100,-25.04,33.64,68.04,10.42
422,steinbach,90,CA,1542070800,72,49.53,-96.69,12.2,9.17
423,san cristobal,75,EC,1542070800,93,-0.39,-78.55,53.6,3.36
424,porto novo,0,BR,1542070800,83,-23.68,-45.44,69.8,4.7
425,povenets,88,RU,1542074947,87,62.85,34.83,33.12,14.67
426,tonekabon,90,IR,1542070800,93,36.82,50.88,55.4,1.92
427,shahdol,0,IN,1542074947,65,23.3,81.36,70.69,4.27
428,virginia beach,90,US,1542074160,96,36.85,-75.98,60.08,9.17
429,wajir,92,KE,1542074948,98,1.75,40.07,71.55,5.17
430,hovd,40,NO,1542070200,100,63.83,10.7,46.4,9.17
431,wanaka,0,NZ,1542074949,46,-44.7,169.14,62.59,2.37
432,ornskoldsvik,12,SE,1542072000,100,63.29,18.72,44.6,2.24
433,carballo,0,ES,1542072600,100,43.21,-8.69,41.0,5.82
434,balikpapan,20,ID,1542072600,83,-1.24,116.86,84.2,5.82
435,portland,1,US,1542073980,57,45.52,-122.67,46.04,4.7
436,slave lake,40,CA,1542070800,92,55.28,-114.77,24.8,2.24
437,alberton,100,ZA,1542070800,52,-26.25,28.13,64.4,5.82
438,aqtobe,0,KZ,1542072600,84,50.28,57.21,8.6,6.71
439,riyadh,40,SA,1542074400,82,24.63,46.72,66.2,6.93
440,gillette,20,US,1542073980,52,44.29,-105.5,26.06,6.93
441,hongjiang,92,CN,1542074952,100,27.21,109.83,52.65,3.27
442,zaragoza,90,ES,1542072600,93,41.65,-0.88,53.6,4.7
443,cairns,20,AU,1542072600,38,-16.92,145.77,87.8,20.8
444,kargasok,88,RU,1542074954,86,59.06,80.87,20.74,5.84
445,yining,80,CN,1542074954,81,29.04,114.56,57.64,2.71
446,tiznit,36,MA,1542074954,100,29.7,-9.73,54.76,1.92
447,praia,44,BR,1542074955,94,-20.25,-43.81,63.0,4.16
448,lar,0,IR,1542070800,87,27.66,54.32,55.4,2.04
449,lavrentiya,8,RU,1542074955,100,65.58,-170.99,29.29,38.61
450,port lincoln,0,AU,1542074956,83,-34.72,135.86,65.47,11.32
451,itarema,8,BR,1542074956,88,-2.92,-39.92,77.98,11.43
452,anchorage,90,US,1542072060,100,61.22,-149.89,46.94,10.2
453,sao sebastiao,0,BR,1542074957,63,-3.15,-58.36,83.2,6.4
454,nadym,80,RU,1542074957,82,65.53,72.51,24.12,12.55
455,tommot,76,RU,1542074958,72,58.97,126.27,7.42,3.49
456,barcelos,0,PT,1542072600,100,41.53,-8.62,44.6,1.92
457,port keats,0,AU,1542074958,71,-14.25,129.55,93.42,9.75
458,vyshneve,0,UA,1542074400,85,50.39,30.37,26.6,6.71
459,jaffna,12,LK,1542074959,97,9.67,80.01,83.52,12.21
460,iisalmi,90,FI,1542072000,100,63.56,27.19,37.4,16.11
461,isangel,100,VU,1542074961,100,-19.55,169.27,70.15,29.44
462,emerald,0,AU,1542074961,34,-23.53,148.16,87.79,10.76
463,la ronge,90,CA,1542070800,78,55.1,-105.3,14.0,6.93
464,kardla,90,EE,1542070200,93,58.44,26.57,39.2,9.17
465,curanilahue,8,CL,1542074962,94,-37.48,-73.35,47.47,2.93
466,progreso,90,UY,1542070800,88,-34.68,-56.22,71.6,2.24
467,anadyr,20,RU,1542072600,83,64.73,177.51,-7.61,6.71
468,beba,20,CU,1542070200,78,22.44,-79.73,77.0,6.93
469,mpika,0,ZM,1542074963,43,-11.84,31.4,58.36,9.98
470,kiunga,0,PG,1542074964,44,-6.12,141.3,94.63,2.26
471,cristobal obregon,40,MX,1542073500,83,16.35,-93.53,75.2,4.7
472,upington,0,ZA,1542070800,22,-28.46,21.24,75.2,3.36
473,ginda,92,IN,1542074965,66,30.69,78.49,44.55,2.04
474,roma,44,IT,1542072000,93,41.89,12.48,57.2,2.24
475,halstenbek,75,DE,1542072000,87,53.63,9.85,50.0,4.7
476,gardendale,90,US,1542073980,58,32.03,-102.33,34.88,12.75
477,watertown,1,US,1542073980,79,44.9,-97.12,14.18,3.6
478,lutkun,80,RU,1542074967,100,41.48,47.69,31.18,0.25
479,bom jardim,92,BR,1542074968,93,-7.8,-35.59,71.59,3.71
480,luancheng,0,CN,1542074400,70,37.88,114.65,46.4,2.24
481,matabungkay,32,PH,1542074968,100,13.95,120.62,82.57,9.64
482,presidencia roque saenz pena,68,AR,1542074969,99,-26.79,-60.44,72.99,3.49
483,coquimbo,0,CL,1542070800,82,-29.95,-71.34,59.0,6.93
484,yenagoa,56,NG,1542074969,94,4.92,6.26,75.19,3.71
485,ballina,80,IE,1542074970,94,54.11,-9.15,47.07,12.77
486,hami,92,CN,1542074970,90,42.84,93.51,30.55,4.72
487,talakan,0,RU,1542074971,79,50.29,130.28,30.28,3.71
488,sambava,80,MG,1542074971,100,-14.27,50.17,75.73,15.46
489,nishihara,90,JP,1542074400,77,35.74,139.53,62.6,5.82
490,krasnoshchekovo,88,RU,1542074868,74,51.67,82.73,7.92,16.35
491,ternate,75,PH,1542074400,62,14.29,120.72,87.8,6.93
492,swellendam,56,ZA,1542070800,82,-34.02,20.44,60.8,4.7
493,zhigansk,12,RU,1542074973,57,66.77,123.37,-5.54,3.94
494,pisco,0,PE,1542070800,82,-13.71,-76.2,66.2,14.99
495,kindu,44,CD,1542074974,98,-2.95,25.92,70.65,1.59
496,san rafael,88,AR,1542074975,82,-34.61,-68.33,49.32,3.15
497,orahovac,75,XK,1542074400,86,42.4,20.65,30.2,2.37
498,manokwari,56,ID,1542074975,100,-0.87,134.08,80.37,5.95
499,suntar,24,RU,1542074976,54,62.16,117.65,-4.51,4.27
500,saint anthony,1,US,1542070560,32,43.97,-111.68,30.02,2.71
501,yerofey pavlovich,80,RU,1542074977,77,53.97,121.97,17.86,3.38
502,kud,100,IN,1542074977,78,33.08,75.29,51.34,2.15
503,dudinka,0,RU,1542074810,33,69.41,86.18,-22.24,11.65
504,jacksonville,90,US,1542072900,95,30.33,-81.66,73.94,4.7
505,puerto escondido,20,MX,1542069600,70,15.86,-97.07,84.2,6.93
506,bhadrachalam,0,IN,1542074979,64,17.67,80.89,75.46,4.72
507,touros,92,BR,1542074979,91,-5.2,-35.46,78.34,11.77
508,hanzhong,88,CN,1542074979,98,33.08,107.03,46.75,3.04
509,zhanaozen,8,KZ,1542074980,34,43.35,52.85,23.67,16.24
510,catubig,12,PH,1542074980,92,12.41,125.06,84.19,15.01
511,edendale,0,ZA,1542074981,93,-29.65,30.31,57.1,1.7
512,atbasar,80,KZ,1542074982,80,51.81,68.36,12.28,9.19
513,iranduba,0,BR,1542070800,70,-3.28,-60.19,86.0,3.36
514,antalaha,88,MG,1542074982,100,-14.9,50.28,73.62,10.87
515,petatlan,40,MX,1542073380,83,17.52,-101.27,80.6,2.24
516,picos,56,BR,1542074983,29,-7.08,-41.47,87.97,9.64
517,lufilufi,75,WS,1542070800,83,-13.87,-171.6,82.4,11.41
518,broken hill,92,AU,1542074984,50,-31.97,141.45,76.99,9.64
519,solntsevo,0,RU,1542074984,77,53.34,40.13,9.85,7.18
520,pitkyaranta,92,RU,1542074984,97,61.57,31.48,38.52,18.03
521,merauke,8,ID,1542074985,59,-8.49,140.4,93.73,13.67
522,arlit,36,NE,1542074985,30,18.74,7.39,58.36,3.71
523,teya,20,MX,1542073560,69,21.05,-89.07,82.4,8.05
524,ondjiva,20,AO,1542074986,16,-17.07,15.73,75.15,15.01
525,kichera,20,RU,1542074986,100,55.93,110.1,1.66,4.72
